[
  {
    "kelas": {
      "kode": "IF101",
      "ruang": "Lab Komputer",
      "lat": -6.89148,
      "lng": 107.61078,
      "openedAt": "2025-09-17T10:10:30"
    },
    "hadir": {
      "628123456789": {
        "name": "Mahasiswa A",
        "no": "628123456789",
        "lat": -6.8915,
        "lng": 107.61079,
        "distance": "2 meter",
        "time": "2025-09-17T10:10:30"
      },
      "628987654321": {
        "name": "Mahasiswa B",
        "no": "628987654321",
        "lat": -6.895,
        "lng": 107.615,
        "distance": "608 meter",
        "time": "2025-09-17T10:10:30"
      },
      "628987654322": {
        "name": "Mahasiswa C",
        "no": "628987654322",
        "lat": -6.8951,
        "lng": 107.6151,
        "distance": "624 meter",
        "time": "2025-09-17T10:10:30"
      },
      "628987654323": {
        "name": "Mahasiswa D",
        "no": "628987654323",
        "lat": -6.8952,
        "lng": 107.6152,
        "distance": "640 meter",
        "time": "2025-09-17T10:10:30"
      },
      "628987654324": {
        "name": "Mahasiswa E",
        "no": "628987654324",
        "lat": -6.8953,
        "lng": 107.6153,
        "distance": "655 meter",
        "time": "2025-09-17T10:10:30"
      }
    },
    "closedAt": "2025-09-17T03:10:30.311Z"
  },
  {
    "kelas": {
      "kode": "IF101",
      "ruang": "Lab Komputer",
      "lat": -6.89148,
      "lng": 107.61078,
      "openedAt": "2025-09-17T10:10:53"
    },
    "hadir": {
      "628123456789": {
        "name": "Mahasiswa A",
        "no": "628123456789",
        "lat": -6.8915,
        "lng": 107.61079,
        "distance": "2 meter",
        "time": "2025-09-17T10:10:53"
      },
      "628987654321": {
        "name": "Mahasiswa B",
        "no": "628987654321",
        "lat": -6.895,
        "lng": 107.615,
        "distance": "608 meter",
        "time": "2025-09-17T10:10:53"
      },
      "628987654322": {
        "name": "Mahasiswa C",
        "no": "628987654322",
        "lat": -6.8951,
        "lng": 107.6151,
        "distance": "624 meter",
        "time": "2025-09-17T10:10:53"
      },
      "628987654323": {
        "name": "Mahasiswa D",
        "no": "628987654323",
        "lat": -6.8952,
        "lng": 107.6152,
        "distance": "640 meter",
        "time": "2025-09-17T10:10:53"
      },
      "628987654324": {
        "name": "Mahasiswa E",
        "no": "628987654324",
        "lat": -6.8953,
        "lng": 107.6153,
        "distance": "655 meter",
        "time": "2025-09-17T10:10:53"
      }
    },
    "closedAt": "2025-09-17T03:10:53.555Z"
  }
]